Name,Address,Latitude,Longitude,Rating,Photo Reference,Photo URL
Andhra Bank Bagayam Branch & Atm,"No 280, P J Complex, Kamalakshipuram, Bagayam, National Highway 234, Vellore",12.8857948,79.1358367,2.3,,
State Bank of India BAGAYAM (VELLORE),"CMC CAMPUS, Thorapadi - Bagayam Road, Vellore",12.879699,79.129937,3.4,AZose0kripDDEhL9zXEJWOWDfaQKL5aqQuxdvCUKX2dIkvsExNKXbx3JEuhW2ohxV4u4A0lP2824HMkLYLr-MrT9esYoX6I2qb8A8UVWwCPAE7EUWqcOnSZpcrC0wX_qWoxLVhK9Pb2KOOAGIb4Dju23Flxrmx6_8_hdyq8BEffSVxuhBi4J,https://maps.googleapis.com/maps/api/place/photo?maxwidth=400&photoreference=AZose0kripDDEhL9zXEJWOWDfaQKL5aqQuxdvCUKX2dIkvsExNKXbx3JEuhW2ohxV4u4A0lP2824HMkLYLr-MrT9esYoX6I2qb8A8UVWwCPAE7EUWqcOnSZpcrC0wX_qWoxLVhK9Pb2KOOAGIb4Dju23Flxrmx6_8_hdyq8BEffSVxuhBi4J&key=AIzaSyCsJp9BP-TpdqL2xrIOwuK-oRdX_rZn2gE
KVB ATM,"V4QP+M94, Vellore - Thoothukudi Highway, RV Nagar, Virupakshipuram",12.889133,79.13594309999999,5,AZose0nmWpvOIbDHVStcEtkFpuMtw8MqpQmroTfGXQx4UdX_YzOs3jAiuOATgPAhk5PKOSVnHsINgLJOCcYOHwAENQYmCPvGf4LnEOw2Y_XR-12i0c2HCZBrZT-edIR0DbyOTomAGyW3tI19pfjV_p4zdwz_e9b7TPdZVei0VaLDQ9wb26ZM,https://maps.googleapis.com/maps/api/place/photo?maxwidth=400&photoreference=AZose0nmWpvOIbDHVStcEtkFpuMtw8MqpQmroTfGXQx4UdX_YzOs3jAiuOATgPAhk5PKOSVnHsINgLJOCcYOHwAENQYmCPvGf4LnEOw2Y_XR-12i0c2HCZBrZT-edIR0DbyOTomAGyW3tI19pfjV_p4zdwz_e9b7TPdZVei0VaLDQ9wb26ZM&key=AIzaSyCsJp9BP-TpdqL2xrIOwuK-oRdX_rZn2gE
State Bank of India ATM,"V4QP+P78, National Highway 234, Bagayam",12.8892998,79.13570349999999,4,,
ICICI Bank ATM,"V4RP+79J, Polur - Vellore Road, RV Nagar, Vellore",12.8907247,79.1358882,N/A,,
India 1 ATM,"51 Prakasam cottage, State Highway 9, Bagayam",12.8815942,79.1352584,4.7,,
